[{"baseUUID":"88F48BD-823C-42F1-857A-124E495B351B","taskType":"iTopoType/TaskObject/EcologicalFarm","title":"松果祖传家园","city":"恩施","address":"湖北恩施宣恩县","lng":109.70856547433189,"lat":29.775887951829443,"lightWish":"乡村振兴孵化器之湖北省恩施市宣恩县二台坪村简介整体概况二台坪村位于沙道沟镇东南部，东接辽叶村，南与茶园、林业村接壤，西与木笼寨、赵家坝村相邻，北与老岔村交界，距沙道沟集镇21公里，全村国土面积5.3平方公里，耕地1440亩，其中水田面积250亩，旱地1190亩；林地面积6100亩。自然资源丰富，森林资源密集，平均海拔1300米，北纬30度，一个神奇的地方，一片肥沃的土地。冬暖夏凉，不燥不湿，天然纯洁的水和空气，常年空气清新，三壁一面，属典型二高山地区，有“息养塘”之美誉。全村辖3个生产小组，现有人口68户192人，贫困户54户149人。基层党建全村有正式党员10人(王辉、杨义之、宋东、郭华、莫相怀、朱学忠、唐永富、郭光乾、刘继云、朱彩云)，入党积极分子4人；村支两委干部（书记王辉、村主任郭华， 组织、纪检委员莫相怀、定编干部朱道华，扶贫专干瞿彪，妇联主任郭建瑜）；驻村尖刀班班长：王辉；驻村第一书记：杨义之；帮扶单位结对帮扶情况：宣恩移动公司帮扶干部15人、宣恩工商银行帮扶干部9人。党建引领农旅结合项目发展：2018年经二台坪村党支部提议、“村支两委”及驻村尖刀班多次实地勘察论证、党员大会决议通过发展农旅结合项目，并请专家制定二台坪村农旅结合项目规划图，实施挂图作战。以农旅结合为核心，结合优美的自然环境，优良的气候生态环境，加快推进“生态环境”、“生态经济”、“生态文化”建设。通过二台坪村农旅结合项目的发展，带动相关的吃、住、游基础服务，促进农民增收、集体经济增长，改善目前农民、集体的经济低下状况。做到以点带面、稳步推进,建成生态疗养、生态农业、生态休闲旅游、生态文化特色乡村,打造成为“宜居、宜游”村居、安居乐业的美丽乡村。目前农旅结合项目初有成效，现已建项目：（跑马场、水上乐园、彩虹滑道、卡丁车、山地车、农家自助土灶、风筝情侣走廊、露营基地、陈家寨生态农庄），实现农旅结合项目年收入31万元，带动23户贫困户13人就近就业。在建项目：（热气球、婚庆公司、滑草场、高空自行车、音乐喊泉）。以党建引领各项工作的发展，将二台坪村打造成以生态疗养为核心，以农业为支撑，结合旅游业，实现“以农促旅，以旅哺农”的“建立强大，农旅一体”模式，带领村域百姓致富奔小康。目前，生态家园一处也正在建造中，县领导多次来视察家园项目进展，并承诺给予支持，并期待我们早日做出成品展示生态家园的全貌。现在家园中建成的有生态厕所，泥土房在建中，自然农法践行中。。。。。。个人力量总是有限的，希望大家心连心，手拉手共建生态村！村领导王书记   电话13403069888","QRcode":"./iTopojs/QRcode/88F48BD-823C-42F1-857A-124E495B351B.jpg"},{"baseUUID":"5DFB04FA-1091-4169-AB9D-FF2673CC4476","taskType":"iTopoType/TaskObject/EcologicalFarm","title":"长白山生态有机谷","city":"延边朝鲜族自治州","address":"地处长白山腹地，松花江的上游（源头）","lng":128.18313403299376,"lat":42.19239088931219,"lightWish":"新种子计划，保存能够发芽的种子，一起劳动，一起创造.地处长白山腹地，松花江的上游（源头），现有22公里峡谷（依山傍水），可用土地一千五百余亩；计划打造长白山生态有机”项目需要志同道合有缘之人聚合共同创造","QRcode":"./iTopojs/QRcode/5DFB04FA-1091-4169-AB9D-FF2673CC4476.jpg"},{"baseUUID":"E7411AF8-DD5B-4863-895A-C1DF80098B7C","taskType":"iTopoType/TaskObject/EcologicalFarm","title":"成都都江堰观音山:酵素","city":"成都","address":"成都都江堰观音山","lng":103.62451,"lat":30.99836,"lightWish":"lightWish1","QRcode":"./iTopojs/QRcode/E7411AF8-DD5B-4863-895A-C1DF80098B7C.jpg"},{"baseUUID":"D44F75B6-DBCD-4328-A0EB-B40E1E89EAA9","taskType":"iTopoType/TaskObject/SharedCanteen","title":"雨花斋","city":"汉中市","address":"东关街道南一环路聚兴名苑丁家营新村旁","lng":107.05911498433349,"lat":33.069301151082506,"lightWish":"楊枝甘露","QRcode":"lightWish2"},{"baseUUID":"FEDC6F8F-F40E-4F72-8D7A-23BAFD67DD36","taskType":"iTopoType/TaskObject/SharedCanteen","title":"雨花斋互助式免费素食餐厅","city":"长沙市","address":"长沙市雨花区井湾路与曙光南路交叉口东50米","lng":113.02002114417645,"lat":28.13305840904649,"lightWish":"楊枝甘露","QRcode":"lightWish3"},{"baseUUID":"E2821CB0-A556-48FD-8776-F76940DBAA34","taskType":"iTopoType/TaskObject/EcologicalFarm","title":"有机农场","city":"城市1","address":"详细地址1","lng":157.08744582212043,"lat":10.817254179065017,"lightWish":"共同创造基地","QRcode":"./iTopojs/QRcode/88F48BD-823C-42F1-857A-124E495B351B.jpg"},{"baseUUID":"8CDCD2E4-FF50-471C-A27F-CE696933BEC0","taskType":"iTopoType/TaskObject/EcologicalFarm","title":"有机农场","city":"城市1","address":"详细地址1","lng":-26.197830945773788,"lat":-47.48990492153814,"lightWish":"共同创造基地","QRcode":"./iTopojs/QRcode/88F48BD-823C-42F1-857A-124E495B351B.jpg"},{"baseUUID":"DEF750A3-D094-4EC7-AD8B-C5B2547127DF","taskType":"iTopoType/TaskObject/EcologicalFarm","title":"有机农场","city":"城市1","address":"详细地址1","lng":45.518774664722166,"lat":-4.406110608537617,"lightWish":"共同创造基地","QRcode":"./iTopojs/QRcode/88F48BD-823C-42F1-857A-124E495B351B.jpg"},{"baseUUID":"3B10B1DF-5008-48F3-9F5E-0543A8D11764","taskType":"iTopoType/TaskObject/EcologicalFarm","title":"有机农场","city":"城市1","address":"详细地址1","lng":141.429305454986,"lat":-34.53303014451188,"lightWish":"共同创造基地","QRcode":"./iTopojs/QRcode/88F48BD-823C-42F1-857A-124E495B351B.jpg"},{"baseUUID":"974B8350-E2FC-4A0C-A2A8-CE0D5F4E3B2E","taskType":"iTopoType/TaskObject/EcologicalFarm","title":"有机农场","city":"城市1","address":"详细地址1","lng":124.79901497177741,"lat":-16.16757230548706,"lightWish":"共同创造基地","QRcode":"./iTopojs/QRcode/88F48BD-823C-42F1-857A-124E495B351B.jpg"},{"baseUUID":"7B5CEAE9-B276-441A-B997-CF6E5933C4D9","taskType":"iTopoType/TaskObject/EcologicalFarm","title":"有机农场","city":"城市1","address":"详细地址1","lng":-87.90291943931557,"lat":59.98316689063021,"lightWish":"共同创造基地","QRcode":"./iTopojs/QRcode/88F48BD-823C-42F1-857A-124E495B351B.jpg"}]