[{
	"city": "东莞市",
	"title": "雨花斋",
	"address": "广东省东莞市天桥路91号",
	"lng": 113.96241387132291,
	"lat": 23.029733955561415
}, {
	"city": "东莞市",
	"title": "雨花斋",
	"address": "广东省东莞市兴业街23号东南50米",
	"lng": 114.12573551468245,
	"lat": 22.742768612697265
}, {
	"city": "东莞市",
	"title": "雨花斋",
	"address": "广东省东莞市信源街11号",
	"lng": 113.80791071349078,
	"lat": 23.110401278870675
}, {
	"city": "东莞市",
	"title": "雨花斋",
	"address": "广东省东莞市东进路田美段28号附近",
	"lng": 114.02815528208232,
	"lat": 22.918850524098414
}, {
	"city": "东莞市",
	"title": "雨花斋",
	"address": "广东省东莞市康怡路155号",
	"lng": 114.15026823815185,
	"lat": 22.850216868973927
}, {
	"city": "东莞市",
	"title": "雨花斋",
	"address": "东莞市银沙路与环城北路交叉路口北侧(腾丰大厦)",
	"lng": 113.78497230263999,
	"lat": 23.120970754645278
}, {
	"city": "东莞市",
	"title": "雨花斋",
	"address": "全兴街15号",
	"lng": 113.82678869360728,
	"lat": 22.810620245761932
}, {
	"city": "东莞市",
	"title": "莲心雨花斋",
	"address": "凤岗镇永和街30号105",
	"lng": 114.15623298673613,
	"lat": 22.75338397962141
}, {
	"city": "东莞市",
	"title": "雨花斋互助餐厅",
	"address": "茶山镇草塘四街73号",
	"lng": 113.87596166771559,
	"lat": 23.079884028958183
}, {
	"city": "东莞市",
	"title": "大朗雨花斋(让爱回家)",
	"address": "广东省东莞市大朗镇人和路二巷",
	"lng": 113.95026653506824,
	"lat": 22.941702992342226
}, {
	"city": "东莞市",
	"title": "雨花斋免费吃素",
	"address": "沙田镇桥西路18号",
	"lng": 113.62503798969634,
	"lat": 22.929373786564582
}, {
	"city": "东莞市",
	"title": "东莞常平雨花斋",
	"address": "广东省东莞市振兴五街28号附近",
	"lng": 113.99678825029527,
	"lat": 22.975428246182233
}, {
	"city": "东莞市",
	"title": "雨花斋（莞城店）",
	"address": "广东省东莞市榕树角大街123号",
	"lng": 113.756288778902,
	"lat": 23.057004918282075
}, {
	"city": "东莞市",
	"title": "雨花斋(东莞石龙店)",
	"address": "广东省东莞市西湖一路南1号正南方向60米",
	"lng": 113.86829831324305,
	"lat": 23.101577891610013
}, {
	"city": "温州市",
	"title": "雨花斋",
	"address": "浙江省温州市瑞安市望盛北路247号",
	"lng": 120.68009590330009,
	"lat": 27.77154816694728
}, {
	"city": "温州市",
	"title": "雨花斋",
	"address": "永中永康东路1-27号",
	"lng": 120.83734428276978,
	"lat": 27.927709222906294
}, {
	"city": "温州市",
	"title": "雨花斋",
	"address": "温州市龙港市西六路与西城路交叉路口往北约50米(万宝路大酒店西侧约100米)",
	"lng": 120.53381619342579,
	"lat": 27.581815707303818
}, {
	"city": "温州市",
	"title": "雨花斋",
	"address": "矾山镇朝阳路6-7号",
	"lng": 120.41513584236986,
	"lat": 27.343349262217906
}, {
	"city": "温州市",
	"title": "雨花斋素食馆",
	"address": "浙江省温州市苍南县上林一街32～40号",
	"lng": 120.41042701471865,
	"lat": 27.519361959276715
}, {
	"city": "温州市",
	"title": "雨花斋(龟湖路55弄)",
	"address": "温州市鹿城区龟湖路31弄7号108室",
	"lng": 120.68048998992718,
	"lat": 28.00659599337041
}, {
	"city": "温州市",
	"title": "雨花斋(普门店)",
	"address": "浙江省温州市龙湾区罗东南街711号",
	"lng": 120.83032851673917,
	"lat": 27.918109928845013
}, {
	"city": "漳州市",
	"title": "雨花斋",
	"address": "福建省漳州市龙海市城隍路",
	"lng": 117.865390424371,
	"lat": 24.414154221153503
}, {
	"city": "漳州市",
	"title": "雨花斋",
	"address": "福建省漳州市诏安县中山西路",
	"lng": 117.17836628073626,
	"lat": 23.718135521284513
}, {
	"city": "漳州市",
	"title": "雨花斋互助餐厅",
	"address": "福建省漳州市芗城区胜利东路46-11号附近",
	"lng": 117.68367211298704,
	"lat": 24.519478168718642
}, {
	"city": "漳州市",
	"title": "漳州开发区雨花斋",
	"address": "华山路3号",
	"lng": 118.04973160818213,
	"lat": 24.409458388829886
}, {
	"city": "漳州市",
	"title": "漳州万达金街3栋雨花斋",
	"address": "步文镇九龙大道1018-3栋",
	"lng": 117.682648044706,
	"lat": 24.50104964767092
}, {
	"city": "漳州市",
	"title": "雨花斋互助餐厅",
	"address": "福建省漳州市芗城区丹霞路",
	"lng": 117.67482380371668,
	"lat": 24.49948778300078
}, {
	"city": "漳州市",
	"title": "雨花斋(石码店)",
	"address": "漳州市龙海市",
	"lng": 117.82711353677293,
	"lat": 24.45327237733774
}, {
	"city": "漳州市",
	"title": "雨花斋(白水店)",
	"address": "福建省漳州市龙海市锦康路",
	"lng": 117.87460694906977,
	"lat": 24.331530717539135
}, {
	"city": "漳州市",
	"title": "雨花斋素食餐厅(角美店)",
	"address": "文圃大道13-16号",
	"lng": 117.90656030486299,
	"lat": 24.527870623916492
}, {
	"city": "漳州市",
	"title": "雨花斋浮宫店",
	"address": "华兴路与镇前路交叉口西100米",
	"lng": 117.91796402381674,
	"lat": 24.371643035162965
}, {
	"city": "厦门市",
	"title": "雨花斋",
	"address": "厦门市集美区南浦路与营海路交叉路口往东北约100米(滨北幼儿园北侧约100米)",
	"lng": 118.050090930386,
	"lat": 24.564296883397578
}, {
	"city": "厦门市",
	"title": "雨花斋",
	"address": "西柯镇环东海域滨海西大道",
	"lng": 118.15485131892503,
	"lat": 24.632340372683935
}, {
	"city": "厦门市",
	"title": "雨花斋",
	"address": "厦门市思明区站南路与东坪山路交叉路口东侧(自然家园)",
	"lng": 118.12707571256568,
	"lat": 24.476115012572766
}, {
	"city": "厦门市",
	"title": "后埔村雨花斋",
	"address": "后埔村后社4-1号",
	"lng": 118.03916753538827,
	"lat": 24.774852178022353
}, {
	"city": "厦门市",
	"title": "雨花斋免费素食互助餐厅(厦门前埔南区店)",
	"address": "福建省厦门市思明区古楼路19号",
	"lng": 118.17712031251003,
	"lat": 24.471198197353008
}, {
	"city": "厦门市",
	"title": "雨花斋(金山店)",
	"address": "福建省厦门市湖里区金山路",
	"lng": 118.18374612411888,
	"lat": 24.505106951574152
}, {
	"city": "厦门市",
	"title": "雨花斋(同安店)",
	"address": "福建省厦门市同安区双吉路212",
	"lng": 118.14635200134518,
	"lat": 24.718863026501968
}, {
	"city": "厦门市",
	"title": "雨花斋(海沧店)",
	"address": "福建省厦门市海沧区嵩屿中路75",
	"lng": 118.0436051646061,
	"lat": 24.461808020750397
}, {
	"city": "厦门市",
	"title": "雨花斋(东坪山店)",
	"address": "东坪山社356-4",
	"lng": 118.12821503344361,
	"lat": 24.459621043993142
}, {
	"city": "厦门市",
	"title": "雨花斋(万项商务中心店)",
	"address": "厦门市湖里区悦华路153号万项商务中心a1s2单元",
	"lng": 118.12186868467882,
	"lat": 24.522556254411654
}, {
	"city": "唐山市",
	"title": "雨花斋",
	"address": "河北省唐山市路北区学院北路",
	"lng": 118.16489501945891,
	"lat": 39.66851976467556
}, {
	"city": "唐山市",
	"title": "雨花斋",
	"address": "唐山市路南区",
	"lng": 118.21360949845115,
	"lat": 39.6290587868024
}, {
	"city": "唐山市",
	"title": "雨花斋",
	"address": "唐山市遵化市西二环南路与通华西街交叉路口南侧(西环园东北侧)",
	"lng": 117.94742360973449,
	"lat": 40.19008788329486
}, {
	"city": "唐山市",
	"title": "雨花斋",
	"address": "河北省唐山市路北区北新东道18号东50米",
	"lng": 118.20320712064562,
	"lat": 39.64005441553975
}, {
	"city": "唐山市",
	"title": "雨花斋",
	"address": "河北省唐山市曹妃甸区垦丰大街38号附近",
	"lng": 118.46517995652049,
	"lat": 39.278740732629736
}, {
	"city": "唐山市",
	"title": "雨花斋",
	"address": "河北省唐山市丰润区荣国北大路",
	"lng": 118.12630803678614,
	"lat": 39.836719086706026
}, {
	"city": "唐山市",
	"title": "雨花斋",
	"address": "河北省唐山市丰润区S361(唐通线)",
	"lng": 117.99010210451354,
	"lat": 39.64472164180906
}, {
	"city": "唐山市",
	"title": "雨花斋免费素食互助餐厅",
	"address": "京华西道与永安道交叉口东北100米",
	"lng": 118.44083201448639,
	"lat": 39.74736305512685
}, {
	"city": "盐城市",
	"title": "雨花斋",
	"address": "解放北路23号3层",
	"lng": 120.14068142762116,
	"lat": 33.39086078008818
}, {
	"city": "盐城市",
	"title": "雨花斋",
	"address": "盐城市阜宁县徐州路672-1-11",
	"lng": 119.79556152357328,
	"lat": 33.770849609388854
}, {
	"city": "盐城市",
	"title": "雨花斋",
	"address": "江苏省盐城市阜宁县人民北路",
	"lng": 119.89856141300845,
	"lat": 33.68374397342211
}, {
	"city": "盐城市",
	"title": "雨花斋",
	"address": "江苏省盐城市亭湖区盐南东路12号附近",
	"lng": 120.15094007654511,
	"lat": 33.373224957827375
}, {
	"city": "盐城市",
	"title": "雨花斋",
	"address": "解放南路缤纷亚洲(宝乐迪KTV电梯口向东20米)",
	"lng": 120.15480521566289,
	"lat": 33.36001012056846
}, {
	"city": "盐城市",
	"title": "雨花斋",
	"address": "江苏省盐城市盐都区S234(盐兴路)",
	"lng": 120.09400547332271,
	"lat": 33.37418974572823
}, {
	"city": "盐城市",
	"title": "盐城雨花斋",
	"address": "盐湾九组中河路一巷8号",
	"lng": 120.14643956594011,
	"lat": 33.420524524660166
}, {
	"city": "盐城市",
	"title": "雨花斋免费素食互助餐厅",
	"address": "盐城市射阳县沿河西路与双山路交叉路口东侧(虹亚名居南侧约100米)",
	"lng": 120.2490709704551,
	"lat": 33.77897636189545
}, {
	"city": "惠州市",
	"title": "雨花斋",
	"address": "惠州市博罗县",
	"lng": 113.90036862841363,
	"lat": 23.19955187568627
}, {
	"city": "惠州市",
	"title": "雨花斋",
	"address": "惠州市惠城区仲恺六路420号",
	"lng": 114.29425699948479,
	"lat": 22.99402392257027
}, {
	"city": "惠州市",
	"title": "雨花斋",
	"address": "人民南一路与谭屋二路三街交叉口东北50米",
	"lng": 114.46229465693962,
	"lat": 23.10860618420308
}, {
	"city": "惠州市",
	"title": "雨花斋",
	"address": "广东省惠州市博罗县罗阳二路",
	"lng": 114.29554966111323,
	"lat": 23.18708717209785
}, {
	"city": "惠州市",
	"title": "雨花斋",
	"address": "广东省惠州市博罗县历山路20号地下",
	"lng": 113.867713965509,
	"lat": 23.125320017510678
}, {
	"city": "惠州市",
	"title": "雨花斋",
	"address": "广东省惠州市惠东县文化路",
	"lng": 114.65331932357333,
	"lat": 22.945540686097225
}, {
	"city": "惠州市",
	"title": "雨花斋(下埔店)",
	"address": "广东省惠州市惠城区北五街6号",
	"lng": 114.4240409456237,
	"lat": 23.086916045865944
}, {
	"city": "深圳市",
	"title": "雨花斋",
	"address": "广东省深圳市南山区蛇口街道石云路蛇口大厦32",
	"lng": 113.93250029785052,
	"lat": 22.492693313563983
}, {
	"city": "深圳市",
	"title": "雨花斋",
	"address": "广东省深圳市龙岗区丰树山路",
	"lng": 114.40836793990464,
	"lat": 22.64301381827946
}, {
	"city": "深圳市",
	"title": "雨花斋",
	"address": "深圳市罗湖区望桐路与横排岭路交叉路口往西南约100米(梧桐文体公园北侧)",
	"lng": 114.19782551997042,
	"lat": 22.596869770499506
}, {
	"city": "深圳市",
	"title": "雨花斋",
	"address": "龙华区民治大道690号牛栏前商业街联沣美食广场1楼",
	"lng": 114.04368482841149,
	"lat": 22.64140817684487
}, {
	"city": "深圳市",
	"title": "雨花斋",
	"address": "和一社区新村B区35号",
	"lng": 113.79599199598835,
	"lat": 22.719049253900305
}, {
	"city": "深圳市",
	"title": "雨花斋",
	"address": "广东省深圳市龙华区万众茶城3栋2楼",
	"lng": 114.04309697728593,
	"lat": 22.64335003744197
}, {
	"city": "深圳市",
	"title": "雨花斋(林展财富大厦店)",
	"address": "六约深坑工业区深峰路林展财富大厦左侧",
	"lng": 114.18281339761484,
	"lat": 22.646143159289167
}, {
	"city": "广州市",
	"title": "雨花斋",
	"address": "广东省广州市荔湾区新兴大街4号附近",
	"lng": 113.25483056881029,
	"lat": 23.114841794361503
}, {
	"city": "广州市",
	"title": "雨花齋",
	"address": "广州市番禺区西丽路与北桥路交叉路口北侧(禺丰园)",
	"lng": 113.3608193901338,
	"lat": 22.947237972457536
}, {
	"city": "广州市",
	"title": "雨花斋(南沙店)",
	"address": "金岭北路60-3号",
	"lng": 113.55705018634887,
	"lat": 22.803645487607277
}, {
	"city": "广州市",
	"title": "雨花斋(新桥路店)",
	"address": "广东省广州市增城区增荔城街道湘江路169号B幢首层",
	"lng": 113.84561439234314,
	"lat": 23.297434120117458
}, {
	"city": "汕头市",
	"title": "雨花斋(凤新店)",
	"address": "汕头市澄海区凤新二路与信兴南二直路交叉路口南侧(澄海信锦钟表厂南侧约150米)",
	"lng": 116.79963169479956,
	"lat": 23.461811300188106
}, {
	"city": "汕头市",
	"title": "澄海雨花斋秀水店",
	"address": "汕头市澄海区莱美路与秀夫路交叉路口往东约50米(秀水园)",
	"lng": 116.77918626139922,
	"lat": 23.457103834816692
}, {
	"city": "汕头市",
	"title": "雨花斋(汕头店)",
	"address": "广东省汕头市金平区黄岗路5号",
	"lng": 116.69914957608094,
	"lat": 23.365588364936066
}, {
	"city": "汕头市",
	"title": "雨花斋(东里塘西店)",
	"address": "汕头市澄海区樟西路塘西工业区二号正博学习中心一楼",
	"lng": 116.82451924894528,
	"lat": 23.57611294953939
}, {
	"city": "珠海市",
	"title": "雨花斋",
	"address": "广东省珠海市斗门区环山南路450号",
	"lng": 113.30299546447561,
	"lat": 22.210692268132835
}, {
	"city": "珠海市",
	"title": "雨花斋",
	"address": "广东省珠海市香洲区兴华路158号附近",
	"lng": 113.56645948741003,
	"lat": 22.28697760850353
}, {
	"city": "珠海市",
	"title": "雨花斋免费素食互助餐厅",
	"address": "珠海市香洲区逸仙路188号首层",
	"lng": 113.53423367555571,
	"lat": 22.25016568783768
}, {
	"city": "珠海市",
	"title": "唐家雨花斋",
	"address": "广东省珠海市香洲区唐中路芳后街15号",
	"lng": 113.60373081182055,
	"lat": 22.366432731960423
}, {
	"city": "潮州市",
	"title": "雨花斋",
	"address": "广东省潮州市饶平县建设路",
	"lng": 117.01319538565448,
	"lat": 23.667039812985564
}, {
	"city": "潮州市",
	"title": "雨花斋",
	"address": "潮州市饶平县拥军路(黄冈初级中学南侧约50米)",
	"lng": 117.01308112119365,
	"lat": 23.683344295853832
}, {
	"city": "潮州市",
	"title": "枫溪雨花斋",
	"address": "浮洲园街与浮洲园路交叉口西南150米",
	"lng": 116.60656787465886,
	"lat": 23.659801524156137
}, {
	"city": "揭阳市",
	"title": "雨花斋",
	"address": "揭阳市揭东区",
	"lng": 116.3028501530218,
	"lat": 23.614257064805354
}, {
	"city": "揭阳市",
	"title": "揭阳玉湖雨花斋",
	"address": "揭阳市揭东区新埔龙南围二巷与705乡道交叉口东200米",
	"lng": 116.24762295910045,
	"lat": 23.660777972891143
}, {
	"city": "揭阳市",
	"title": "雨花斋(兰花苑店)",
	"address": "广东省揭阳市普宁市赤华北路",
	"lng": 116.16484401655278,
	"lat": 23.30935903135745
}, {
	"city": "佛山市",
	"title": "林岳东沙村雨花斋",
	"address": "广东省佛山市南海区港口南路",
	"lng": 113.25627773898638,
	"lat": 23.004474905016814
}, {
	"city": "佛山市",
	"title": "雨花斋免费互助餐厅",
	"address": "太行路与富寿西二街交叉口西南50米",
	"lng": 113.17397283225617,
	"lat": 23.200756478417023
}, {
	"city": "江门市",
	"title": "雨花斋",
	"address": "江门市江海区活力路与江南路交叉路口南侧(桥东新村北侧约150米)",
	"lng": 113.1069313039326,
	"lat": 22.585640582331283
}, {
	"city": "江门市",
	"title": "雨花斋",
	"address": "同德二路22号-104",
	"lng": 113.0466280550677,
	"lat": 22.51728333819568
}, {
	"city": "湛江市",
	"title": "雨花斋",
	"address": "遂城镇东山路一横2号",
	"lng": 110.2629040552009,
	"lat": 21.381551726962353
}, {
	"city": "湛江市",
	"title": "雨花斋",
	"address": "广东省湛江市霞山区绿塘路9号附近",
	"lng": 110.41823104901594,
	"lat": 21.21566789866806
}, {
	"city": "中山市",
	"title": "雨花斋",
	"address": "中山市嘉联路19号",
	"lng": 113.47732063168436,
	"lat": 22.258724653999387
}, {
	"city": "中山市",
	"title": "雨花斋(福生东街店)",
	"address": "广东省中山市云汉云汉站大街第9巷-1号",
	"lng": 113.3411539554075,
	"lat": 22.526225965249
}, {
	"city": "茂名市",
	"title": "雨花斋免费素食互助餐厅(电白店)",
	"address": "广东省茂名市电白区新湖路113号",
	"lng": 111.0055970895761,
	"lat": 21.508025286477267
}, {
	"city": "清远市",
	"title": "雨花斋",
	"address": "下廓一街与城皇街交叉口东北50米",
	"lng": 113.03669279613062,
	"lat": 23.70919395440004
}, {
	"city": "潍坊市",
	"title": "雨花斋",
	"address": "山东省潍坊市昌邑市利民街431号附近",
	"lng": 119.4015466709562,
	"lat": 36.860899593239004
}, {
	"city": "潍坊市",
	"title": "雨花斋",
	"address": "山东省潍坊市寒亭区运河西街191号北70米",
	"lng": 119.19958962620295,
	"lat": 36.782623533942576
}, {
	"city": "潍坊市",
	"title": "雨花斋",
	"address": "山东省潍坊市安丘市向阳路104号附近",
	"lng": 119.21458234516449,
	"lat": 36.43945876153733
}, {
	"city": "潍坊市",
	"title": "唐吾雨花斋",
	"address": "山东省潍坊市昌乐县盛鄌街(大鄌街42号)",
	"lng": 118.87254003579379,
	"lat": 36.45289181631962
}, {
	"city": "潍坊市",
	"title": "雨花斋免费素食互助餐厅",
	"address": "山东省潍坊市坊子区美的亚商业街2-08号附近",
	"lng": 119.14579900243493,
	"lat": 36.6003379415514
}, {
	"city": "潍坊市",
	"title": "雨花齐免费素食互助餐厅",
	"address": "山东省潍坊市奎文区四平路36号附近",
	"lng": 119.12285636954064,
	"lat": 36.722413541791894
}, {
	"city": "潍坊市",
	"title": "雨花斋免费素食互助餐厅(怡和星国际店)",
	"address": "潍坊市奎文区胜利东街4061号潍坊市政府西临怡和星国际E座六单元101室",
	"lng": 119.16163900315347,
	"lat": 36.71457688397587
}, {
	"city": "德州市",
	"title": "雨花斋",
	"address": "德州市齐河县",
	"lng": 116.76390897491616,
	"lat": 36.79466494165142
}, {
	"city": "德州市",
	"title": "雨花斋",
	"address": "山东省德州市武城县顺河街",
	"lng": 116.08641306776826,
	"lat": 37.21513729893475
}, {
	"city": "德州市",
	"title": "雨花斋免费素食互助餐厅",
	"address": "山东省德州市夏津县南城街84号附近",
	"lng": 116.01636320410017,
	"lat": 36.954316145258076
}, {
	"city": "德州市",
	"title": "雨花斋免费素食互助餐厅",
	"address": "山东省德州市宁津县中心大街",
	"lng": 116.80745595146226,
	"lat": 37.65832835101124
}, {
	"city": "德州市",
	"title": "雨花斋免费素食互助餐厅(外贸机械住宅小区店)",
	"address": "德共青团东路外贸机械住宅小区1号楼",
	"lng": 116.32620674060178,
	"lat": 37.46885873123092
}, {
	"city": "威海市",
	"title": "雨花斋",
	"address": "山东省威海市荣成市建业街1号附近",
	"lng": 122.43532200536394,
	"lat": 37.17107459247051
}, {
	"city": "威海市",
	"title": "雨花斋",
	"address": "米山路171号泉都碧玉小区2-3号",
	"lng": 122.04015597423583,
	"lat": 37.19460289207606
}, {
	"city": "威海市",
	"title": "雨花斋",
	"address": "威海市荣成市",
	"lng": 122.32280205379512,
	"lat": 37.124027471875316
}, {
	"city": "威海市",
	"title": "雨花斋(望岛店)",
	"address": "威海市环翠区望海街16-2号",
	"lng": 122.14074184727404,
	"lat": 37.458579458063035
}, {
	"city": "威海市",
	"title": "雨花斋(八角楼店)",
	"address": "山东省威海市环翠区环山路3号",
	"lng": 122.1337077558087,
	"lat": 37.4986461688266
}, {
	"city": "青岛市",
	"title": "雨花斋",
	"address": "山东省青岛市黄岛区长江东路427号东北90米",
	"lng": 120.22496287599216,
	"lat": 35.96865779466984
}, {
	"city": "青岛市",
	"title": "即墨区雨花斋餐馆",
	"address": "山东省青岛市即墨区黄河三路启翰苑西北角",
	"lng": 120.47660277307742,
	"lat": 36.41575576279404
}, {
	"city": "青岛市",
	"title": "雨花斋(万佳广场店)",
	"address": "山东省青岛市市北区台东八路万佳广场3-131号",
	"lng": 120.3648080235468,
	"lat": 36.09194986940149
}, {
	"city": "滨州市",
	"title": "雨花斋公益慈善发起点",
	"address": "黄山四路与黛溪二路交叉口西100米",
	"lng": 117.73704728641952,
	"lat": 36.89662172674957
}, {
	"city": "滨州市",
	"title": "雨花斋(胜利一路店)",
	"address": "胜利一路343-6号",
	"lng": 118.13217810397165,
	"lat": 37.14987127316138
}, {
	"city": "菏泽市",
	"title": "西花斋素食(单县店)",
	"address": "菏泽市单县城皇庙街与湖西北路交叉路口东侧(福鑫花园)",
	"lng": 116.09232697226265,
	"lat": 34.80352196257488
}, {
	"city": "烟台市",
	"title": "雨花斋",
	"address": "山东省烟台市莱阳市昌山路87号西南90米",
	"lng": 120.72072493101075,
	"lat": 36.978474190430276
}, {
	"city": "烟台市",
	"title": "雨花斋素食餐厅",
	"address": "烟台市福山区黄河路与香山路交叉路口西北侧(怡苑花园东侧)",
	"lng": 121.262635724824,
	"lat": 37.57332343800899
}, {
	"city": "淄博市",
	"title": "雨花斋",
	"address": "山东省淄博市淄川区香港路14号3附近",
	"lng": 117.9606576261686,
	"lat": 36.65521825958823
}, {
	"city": "淄博市",
	"title": "雨花齐免费素食互助餐厅",
	"address": "淄博市张店区北西五路与万杰路交叉路口往北约100米(天府名城西侧)",
	"lng": 118.04413518093871,
	"lat": 36.85063398472101
}, {
	"city": "济宁市",
	"title": "雨花斋",
	"address": "奎星路泽宇粥铺旁",
	"lng": 116.32126606029689,
	"lat": 35.06188799826276
}, {
	"city": "聊城市",
	"title": "雨花斋互助餐厅",
	"address": "山东省聊城市东昌府区广场西路",
	"lng": 115.96537538335383,
	"lat": 36.4824975052981
}, {
	"city": "临沂市",
	"title": "雨花斋",
	"address": "临沂市兰山区宏大路与水田路交叉路口往北约50米(兰华永安汽车用品城西北侧约100米)",
	"lng": 118.29472648600216,
	"lat": 35.08016011192084
}, {
	"city": "泰安市",
	"title": "雨花斋免费素食",
	"address": "泰安市肥城市新城路与泰西大街交叉路口往东约100米(聚商城商业楼西北侧)",
	"lng": 116.79026238400128,
	"lat": 36.19097444072621
}, {
	"city": "枣庄市",
	"title": "雨花斋",
	"address": "山东省枣庄市薛城区永福中路53号附近",
	"lng": 117.26988566188872,
	"lat": 34.799206039639344
}, {
	"city": "杭州市",
	"title": "雨花斋",
	"address": "浙江省杭州市江干区丁兰路88号四楼",
	"lng": 120.2258619899771,
	"lat": 30.334010968029986
}, {
	"city": "杭州市",
	"title": "雨花斋",
	"address": "浙江省杭州市余杭区北沙西路156号品悦楼一楼",
	"lng": 120.27400299073177,
	"lat": 30.43399297106257
}, {
	"city": "杭州市",
	"title": "雨花斋免费素食互助餐厅",
	"address": "杭州市萧山区萧棉路367",
	"lng": 120.26596719879228,
	"lat": 30.1764928889595
}, {
	"city": "杭州市",
	"title": "品品斋",
	"address": "江滨路20-1号",
	"lng": 119.2811481144216,
	"lat": 29.47684075633359
}, {
	"city": "台州市",
	"title": "雨花斋",
	"address": "浙江省台州市温岭市泽楚路356号附近",
	"lng": 121.37414470618998,
	"lat": 28.503099294096796
}, {
	"city": "台州市",
	"title": "雨花斋素食餐厅",
	"address": "浙江省台州市温岭市迎宾大道",
	"lng": 121.33892825563285,
	"lat": 28.48503447473326
}, {
	"city": "台州市",
	"title": "雨花斋免费互助素食餐厅",
	"address": "浙江省台州市椒江区海塘路6、8号东北90米",
	"lng": 121.44025100864742,
	"lat": 28.688163753883384
}, {
	"city": "台州市",
	"title": "感恩吃素雨花斋",
	"address": "太平街道三星大道232弄53号",
	"lng": 121.3886619520403,
	"lat": 28.380362256941215
}, {
	"city": "湖州市",
	"title": "雨花斋",
	"address": "雉城街道钮店湾村龙湾斗新村D-16号",
	"lng": 119.93475396234436,
	"lat": 31.005463857102395
}, {
	"city": "湖州市",
	"title": "雨花斋",
	"address": "彩云二路与织里南路交叉口东北50米",
	"lng": 120.2654201307367,
	"lat": 30.850147051250175
}, {
	"city": "湖州市",
	"title": "雨花斋(同心路店)",
	"address": "私营城同心路118号",
	"lng": 119.9638140557616,
	"lat": 30.542666272644503
}, {
	"city": "嘉兴市",
	"title": "雨花斋",
	"address": "东升东路与东方路交叉口南50米",
	"lng": 120.77104037008289,
	"lat": 30.780317784869123
}, {
	"city": "嘉兴市",
	"title": "雨花斋",
	"address": "浙江省嘉兴市南湖区勤俭路1087附近",
	"lng": 120.75477205729719,
	"lat": 30.77121123718647
}, {
	"city": "嘉兴市",
	"title": "雨花斋(金都南德店)",
	"address": "浙江省嘉兴市南湖区南溪东路辅路",
	"lng": 120.80962753241676,
	"lat": 30.758068039016308
}, {
	"city": "绍兴市",
	"title": "雨花斋",
	"address": "浙江省绍兴市越城区朝阳路26号东北70米",
	"lng": 120.58891789406744,
	"lat": 29.98426762846387
}, {
	"city": "绍兴市",
	"title": "雨花斋(诸暨店)",
	"address": "人民中路43号",
	"lng": 120.2426929845261,
	"lat": 29.724478499344155
}, {
	"city": "绍兴市",
	"title": "雨花斋(上虞舜江店)",
	"address": "舜江东路326号附近",
	"lng": 120.88094804922869,
	"lat": 30.03064830789312
}, {
	"city": "金华市",
	"title": "雨花斋",
	"address": "浙江省金华市东阳市S218(十里街)",
	"lng": 120.2965553828866,
	"lat": 29.17684629105027
}, {
	"city": "金华市",
	"title": "雨花斋素食互助餐厅(东升路店)",
	"address": "浙江省金华市武义县东升东路227号",
	"lng": 119.83549109698761,
	"lat": 28.908064865752646
}, {
	"city": "宁波市",
	"title": "雨花斋",
	"address": "浙江省宁波市鄞州区钟公庙路169号联盛广场C区三楼",
	"lng": 121.5449750158133,
	"lat": 29.830598954459717
}, {
	"city": "宁波市",
	"title": "雨花斋(银河路店)",
	"address": "浙江省宁波市宁海县气象北路271附近",
	"lng": 121.44054403590468,
	"lat": 29.315096035498776
}, {
	"city": "衢州市",
	"title": "雨花斋",
	"address": "浙江省衢州市江山市东岳路231号",
	"lng": 118.62419798162327,
	"lat": 28.722055038256197
}, {
	"city": "衢州市",
	"title": "雨花斋素食互助餐厅",
	"address": "衢州市柯城区花园中大道与白云中大道交叉路口西南侧(吾悦广场)",
	"lng": 118.85496521112464,
	"lat": 28.980955543650204
}, {
	"city": "舟山市",
	"title": "雨花斋",
	"address": "浙江省舟山市普陀山镇龙树路18号",
	"lng": 122.38245563062016,
	"lat": 29.995428196427962
}, {
	"city": "南京市",
	"title": "雨花斋",
	"address": "南京市江宁区江横路与仓门路交叉路口往东约50米(清修幼儿园东南侧约50米)",
	"lng": 118.6235602009847,
	"lat": 31.82833853850573
}, {
	"city": "南京市",
	"title": "雨花斋",
	"address": "江苏省南京市江宁区石羊路9号",
	"lng": 118.8622559648239,
	"lat": 31.97181002125486
}, {
	"city": "南京市",
	"title": "雨花斋",
	"address": "雄州南路399号茉莉江苏文化旅游城阜康园505栋",
	"lng": 118.80851232243405,
	"lat": 32.305497062202214
}, {
	"city": "南京市",
	"title": "雨花斋(东南社区服务站)",
	"address": "江苏省南京市江宁区秣陵街道前庄路9号9栋012室(前庄路与颐丰街交叉口)",
	"lng": 118.84635398102519,
	"lat": 31.91401597208764
}, {
	"city": "南京市",
	"title": "雨花斋(路西社区店)",
	"address": "南京市浦口区泰冯路与航海路交叉路口往东约50米(天华硅谷庄园)",
	"lng": 118.72575143579978,
	"lat": 32.16183261330074
}, {
	"city": "南京市",
	"title": "雨花斋(花生唐商业店)",
	"address": "新湖大道9号花生唐商业3号楼3层",
	"lng": 118.66649300605363,
	"lat": 31.913518665389056
}, {
	"city": "无锡市",
	"title": "雨花斋",
	"address": "无锡市江阴市君永路与北大街交叉路口北侧(江阴市天华艺术学校南侧约50米)",
	"lng": 120.26644392952643,
	"lat": 31.92156680782249
}, {
	"city": "无锡市",
	"title": "雨花斋",
	"address": "江苏省无锡市江阴市太平路270号南100米",
	"lng": 120.35263661270045,
	"lat": 31.860247159692943
}, {
	"city": "无锡市",
	"title": "雨花斋",
	"address": "江苏省无锡市江阴市果园路18号未来居家8栋2楼",
	"lng": 120.3148375337905,
	"lat": 31.89658723983617
}, {
	"city": "无锡市",
	"title": "雨花斋(宜兴城北店)",
	"address": "江苏省无锡市宜兴市阳羡西路157号综合楼2楼东北方向98米",
	"lng": 119.82420615069215,
	"lat": 31.38220635902193
}, {
	"city": "无锡市",
	"title": "雨花斋亲情互助服务中心",
	"address": "江苏省无锡市宜兴市张边路",
	"lng": 119.85597247928875,
	"lat": 31.259701103622326
}, {
	"city": "苏州市",
	"title": "雨花斋",
	"address": "金港镇后塍塍东路99号",
	"lng": 120.46646988692487,
	"lat": 31.919464406018246
}, {
	"city": "苏州市",
	"title": "雨花斋",
	"address": "江苏省苏州市昆山市白塘路145号",
	"lng": 120.99059333333503,
	"lat": 31.404864445438175
}, {
	"city": "苏州市",
	"title": "雨花斋免费素食互助餐厅",
	"address": "江苏省苏州市张家港市长安中路149号附近",
	"lng": 120.54923077355913,
	"lat": 31.873081081451566
}, {
	"city": "苏州市",
	"title": "雨花斋免费素食互助餐厅",
	"address": "虞山镇阜湖路45号城市之光8-1栋",
	"lng": 120.75898511013898,
	"lat": 31.64671330297903
}, {
	"city": "常州市",
	"title": "雨花斋(凯悦中心花园店)",
	"address": "常州市钟楼区会馆浜路与劳动西路交叉路口往西约50米(凯悦中心)",
	"lng": 119.95062693087512,
	"lat": 31.781302673972025
}, {
	"city": "常州市",
	"title": "两花斋(溧阳店)",
	"address": "溧城镇台港西路99号北水西花园北大门",
	"lng": 119.471030602153,
	"lat": 31.42014190342219
}, {
	"city": "南通市",
	"title": "雨花斋",
	"address": "江苏省南通市崇川区崇安路",
	"lng": 120.90175280483979,
	"lat": 31.97690497937481
}, {
	"city": "南通市",
	"title": "雨花斋(启东店)",
	"address": "汇龙镇灵秀路419号",
	"lng": 121.67390028899644,
	"lat": 31.804037264895495
}, {
	"city": "镇江市",
	"title": "雨花斋",
	"address": "江苏省镇江市润州区大西路366号附近",
	"lng": 119.4459768614797,
	"lat": 32.217294486409074
}, {
	"city": "镇江市",
	"title": "雨花斋免费素食馆",
	"address": "千禧路117号永兴苑1栋109-112室",
	"lng": 119.43331973684413,
	"lat": 32.1423593946204
}, {
	"city": "宿迁市",
	"title": "雨花斋",
	"address": "江苏省宿迁市宿城区幸福南路207号",
	"lng": 118.30654818651347,
	"lat": 33.94680450124309
}, {
	"city": "扬州市",
	"title": "雨花斋(堂子巷)",
	"address": "旧城堂子巷15",
	"lng": 119.44104516422993,
	"lat": 32.3919056830247
}, {
	"city": "保定市",
	"title": "雨花斋",
	"address": "河北省保定市高碑店市京白大街118",
	"lng": 116.04585457399276,
	"lat": 39.12301574408519
}, {
	"city": "保定市",
	"title": "雨花斋感恩吃素",
	"address": "保定市高碑店市朝阳街与迎宾路交叉路口往南约100米(付庄小区北侧)",
	"lng": 115.90884789218855,
	"lat": 39.33031807433075
}, {
	"city": "保定市",
	"title": "雨花斋(高碑店店)",
	"address": "河北省保定市高碑店市世纪西路",
	"lng": 115.88894755056491,
	"lat": 39.31888932519082
}, {
	"city": "保定市",
	"title": "雨花斋(雄安新区店)",
	"address": "温泉商厦和农行之间公路往北约100米路东",
	"lng": 116.10700411649853,
	"lat": 38.99190652470562
}, {
	"city": "保定市",
	"title": "雨花斋免费素食互助餐厅(定兴自然城店)",
	"address": "河北省保定市定兴县G107(国道北大街)",
	"lng": 115.81821740013412,
	"lat": 39.25390330115659
}, {
	"city": "衡水市",
	"title": "雨花斋",
	"address": "新华东街153号附近",
	"lng": 115.7338910364876,
	"lat": 37.518212657831164
}, {
	"city": "衡水市",
	"title": "衡水雨花斋",
	"address": "河北省衡水市桃城区隆兴路12号",
	"lng": 115.65371700023043,
	"lat": 37.7265810030667
}, {
	"city": "衡水市",
	"title": "衡水雨花斋(葛村店)",
	"address": "衡水市桃城区",
	"lng": 115.7787021983779,
	"lat": 37.66964993486717
}, {
	"city": "廊坊市",
	"title": "雨花斋",
	"address": "河北省廊坊市大城县新风南路118附近",
	"lng": 116.64430175219583,
	"lat": 38.701153760748646
}, {
	"city": "廊坊市",
	"title": "雨花齐",
	"address": "廊坊市霸州市",
	"lng": 116.394468976305,
	"lat": 39.10935514321198
}, {
	"city": "廊坊市",
	"title": "雨花斋公益素食餐厅",
	"address": "廊坊市大城县",
	"lng": 116.63605926015848,
	"lat": 38.696853540394706
}, {
	"city": "张家口市",
	"title": "雨花斋",
	"address": "蔚州镇鼓楼后街25号",
	"lng": 114.57797845541329,
	"lat": 39.8515169239097
}, {
	"city": "张家口市",
	"title": "雨花斋",
	"address": "张家口市宣化区人民街与人民西路交叉路口往西约50米(尚东国际)",
	"lng": 115.10379260262377,
	"lat": 40.61473092764057
}, {
	"city": "张家口市",
	"title": "雨花斋(西城店)",
	"address": "宣府大街10号鑫新小区4号楼底商107",
	"lng": 115.04365104873075,
	"lat": 40.61641498553386
}, {
	"city": "沧州市",
	"title": "雨花斋(献县店)",
	"address": "河北省沧州市献县乐寿大街",
	"lng": 116.14296139962137,
	"lat": 38.1976112249232
}, {
	"city": "沧州市",
	"title": "雨花斋(浮阳南大道店)",
	"address": "浮阳南大道24-2号",
	"lng": 116.8507722431534,
	"lat": 38.308941323974736
}, {
	"city": "邢台市",
	"title": "雨花斋",
	"address": "河北省邢台市宁晋县黄儿营村商贸北街与市场街交汇北30米路西(宁晋县工商局黄儿营工商分局北邻)",
	"lng": 115.1240742749364,
	"lat": 37.6117897009584
}, {
	"city": "邢台市",
	"title": "雨花斋",
	"address": "河北省邢台市宁晋县天宝东街",
	"lng": 114.94960744489116,
	"lat": 37.62882609618077
}, {
	"city": "石家庄市",
	"title": "雨花斋互助免费素食餐厅",
	"address": "河北省石家庄市新华区友谊北大街与钟宏路交叉口西行150米仁爱集团院内",
	"lng": 114.45844740900019,
	"lat": 38.075891204897964
}, {
	"city": "芜湖市",
	"title": "雨花斋",
	"address": "浦江路与越秀路交叉口西100米",
	"lng": 118.37630160936327,
	"lat": 31.413793679378653
}, {
	"city": "芜湖市",
	"title": "雨花斋",
	"address": "安徽省芜湖市鸠江区G205(九华北路)",
	"lng": 118.41262010113167,
	"lat": 31.447371168671918
}, {
	"city": "芜湖市",
	"title": "雨花斋院",
	"address": "安徽省芜湖市鸠江区龙山街道九华北路171号雨花斋院",
	"lng": 118.41343136083773,
	"lat": 31.44486409935705
}, {
	"city": "芜湖市",
	"title": "雨花斋免费素食互助餐厅(金都檀宫店)",
	"address": "安徽省芜湖市鸠江区X028(北京东路)",
	"lng": 118.4762291142932,
	"lat": 31.33550695493838
}, {
	"city": "宣城市",
	"title": "雨花斋",
	"address": "宁阳中路153号",
	"lng": 118.9862959659138,
	"lat": 30.624440350172723
}, {
	"city": "宣城市",
	"title": "郎溪雨花斋",
	"address": "安徽省宣城市郎溪县建平镇北港绿园二期34幢102铺",
	"lng": 119.18827798356021,
	"lat": 31.144708862556673
}, {
	"city": "宣城市",
	"title": "雨花斋免费互助素食餐厅",
	"address": "桃州镇健民路13号",
	"lng": 119.43710160304113,
	"lat": 30.886258868897084
}, {
	"city": "宣城市",
	"title": "宁国雨花斋",
	"address": "城东路20号(金一手机店巷内)",
	"lng": 118.99154898704448,
	"lat": 30.628820497193338
}, {
	"city": "安庆市",
	"title": "雨花斋",
	"address": "燎原路燎原路3号1附近",
	"lng": 117.05314250844124,
	"lat": 30.53188844782733
}, {
	"city": "安庆市",
	"title": "雨花斋",
	"address": "安徽省安庆市潜山市梅苑路275附近",
	"lng": 116.58120872571922,
	"lat": 30.638074239443405
}, {
	"city": "安庆市",
	"title": "雨花斋",
	"address": "铜陵市枞阳县莲花路与体育场路交叉路口南侧(枞阳汇金广场东南侧)",
	"lng": 117.22803854885916,
	"lat": 30.70785197797819
}, {
	"city": "安庆市",
	"title": "雨花斋环保公益素食免费互助餐厅",
	"address": "安徽省安庆市怀宁县高河大道350附近",
	"lng": 116.83910325457879,
	"lat": 30.726488098925827
}, {
	"city": "阜阳市",
	"title": "雨花斋(西北门)",
	"address": "阜阳市颍州区临泉路26号附近",
	"lng": 115.83041890421505,
	"lat": 32.89988122117704
}, {
	"city": "阜阳市",
	"title": "雨花斋(文峰店)",
	"address": "颍州路金城大厦一楼",
	"lng": 115.83037165334521,
	"lat": 32.899833021289886
}, {
	"city": "宿州市",
	"title": "雨花斋(阳明别院店)",
	"address": "安徽省宿州市埇桥区西关街道宿蒙路阳明别院",
	"lng": 116.96825263774832,
	"lat": 33.631002850408755
}, {
	"city": "宿州市",
	"title": "雨花斋(宿州雪枫公园店)",
	"address": "宿州市埇桥区公园路138号",
	"lng": 116.99561169985186,
	"lat": 33.64863688849119
}, {
	"city": "铜陵市",
	"title": "雨花斋",
	"address": "铜都大道北段172栋附近",
	"lng": 117.84070626260737,
	"lat": 30.93598410551443
}, {
	"city": "亳州市",
	"title": "雨花斋",
	"address": "安徽省亳州市谯城区三曹路95附近",
	"lng": 115.78836428261268,
	"lat": 33.86325430770221
}, {
	"city": "赣州市",
	"title": "雨花斋",
	"address": "江西省赣州市赣县区创维东路36号附28号雨花斋",
	"lng": 115.01839966576287,
	"lat": 25.87104103298142
}, {
	"city": "赣州市",
	"title": "雨花斋",
	"address": "江西省赣州市于都县渡江大道阳光水岸7号小区",
	"lng": 115.40830396206805,
	"lat": 25.958524966392226
}, {
	"city": "赣州市",
	"title": "雨花斋",
	"address": "赣州市章贡区八境路与章贡路交叉路口往西北约50米(自己家园西南侧)",
	"lng": 114.94962539594168,
	"lat": 25.87317850751185
}, {
	"city": "赣州市",
	"title": "雨花斋",
	"address": "绵水路236号",
	"lng": 116.0397820133255,
	"lat": 25.886587626648154
}, {
	"city": "赣州市",
	"title": "信丰雨花斋",
	"address": "赣州市信丰县圣塔路与市政东路交叉口东北150米",
	"lng": 114.93106532614506,
	"lat": 25.395172968817263
}, {
	"city": "赣州市",
	"title": "雨花斋免费素食互助餐厅",
	"address": "赣州市南康区",
	"lng": 114.76135852722268,
	"lat": 25.65449100334774
}, {
	"city": "赣州市",
	"title": "雨花斋免费素食互助餐厅",
	"address": "赣州市赣县区鑫业大道B5号鸿富楼4层",
	"lng": 115.03120096842859,
	"lat": 25.881046027487944
}, {
	"city": "九江市",
	"title": "雨花斋",
	"address": "江西省九江市柴桑区沿河南路170号",
	"lng": 115.9074972744782,
	"lat": 29.60849150942248
}, {
	"city": "九江市",
	"title": "雨花斋",
	"address": "江西省九江市共青城市双桥路",
	"lng": 115.8010089952913,
	"lat": 29.25534064709766
}, {
	"city": "九江市",
	"title": "雨花斋",
	"address": "江西省九江市柴桑区庐山东路29号西50米",
	"lng": 115.91594161576086,
	"lat": 29.597127246653194
}, {
	"city": "南昌市",
	"title": "雨花斋",
	"address": "向阳路805号5栋附近",
	"lng": 115.93596718116598,
	"lat": 28.54831525258581
}, {
	"city": "南昌市",
	"title": "雨花斋(新建解放路店)",
	"address": "南昌市新建区礼步湖大道与育新路交叉路口往北约50米(世纪万象广场东侧约50米)",
	"lng": 115.8326866611236,
	"lat": 28.690262975412345
}, {
	"city": "抚州市",
	"title": "雨花斋",
	"address": "江西省抚州市临川区河滨路1099",
	"lng": 116.37614963684801,
	"lat": 27.991770209585873
}, {
	"city": "萍乡市",
	"title": "雨花斋",
	"address": "江西省萍乡市安源区站前路2号附近",
	"lng": 113.85635147877815,
	"lat": 27.65376090092279
}, {
	"city": "上饶市",
	"title": "雨花斋",
	"address": "上饶市玉山县博士大道与玉微路交叉路口东侧(博士名邸西侧)",
	"lng": 118.25857865612792,
	"lat": 28.68723691424119
}, {
	"city": "莆田市",
	"title": "雨花斋",
	"address": "福建省莆田市仙游县三和街",
	"lng": 118.84186638967412,
	"lat": 25.31062986484332
}, {
	"city": "莆田市",
	"title": "雨花斋",
	"address": "莆田市仙游县",
	"lng": 118.7624364198971,
	"lat": 25.424657065841284
}, {
	"city": "莆田市",
	"title": "雨花斋(万达店)",
	"address": "福建省莆田市城厢区荔华东大道8号莆田万达广场中央华城西区11号-109",
	"lng": 119.00234866897867,
	"lat": 25.422361177248963
}, {
	"city": "莆田市",
	"title": "雨花斋(涵江梧塘店)",
	"address": "福建省莆田市涵江区X212(工业街)",
	"lng": 119.08522633530187,
	"lat": 25.508359459317177
}, {
	"city": "莆田市",
	"title": "雨花斋(涵江涵园店)",
	"address": "福建省莆田市涵江区涵园路170号",
	"lng": 119.12268567505556,
	"lat": 25.4704120714282
}, {
	"city": "莆田市",
	"title": "雨花斋(仙游木兰市场店)",
	"address": "胜利路1443号",
	"lng": 118.68807091692254,
	"lat": 25.36683832625166
}, {
	"city": "泉州市",
	"title": "雨花斋",
	"address": "泉州市石狮市九二路与湖兴路交叉路口西侧(湖滨嘉禾小区)",
	"lng": 118.64818462517333,
	"lat": 24.741255101552394
}, {
	"city": "泉州市",
	"title": "雨花斋",
	"address": "华山村K11幢神州骆驼一楼",
	"lng": 118.62102696317409,
	"lat": 24.75834846281947
}, {
	"city": "泉州市",
	"title": "雨花斋(洪濑店)",
	"address": "洪濑镇北桥巷55号雨花斋素食馆",
	"lng": 118.52862231776797,
	"lat": 25.07858725335924
}, {
	"city": "泉州市",
	"title": "雨花斋免费素食(惠安东南店)",
	"address": "中山南街与惠女街交叉口西50米",
	"lng": 118.8022062014217,
	"lat": 25.03409134676013
}, {
	"city": "福州市",
	"title": "雨花斋",
	"address": "福建省福州市福清市产塘街23号楼106西90米",
	"lng": 119.38450579890726,
	"lat": 25.72737511566655
}, {
	"city": "福州市",
	"title": "连江雨花斋",
	"address": "福州市连江县玉荷东路与敖江路交叉路口东侧(傲江景城西北侧)",
	"lng": 119.55624384624811,
	"lat": 26.205188051793975
}, {
	"city": "南平市",
	"title": "雨花斋",
	"address": "福建省南平市延平区凤凰假日酒店(胜利街店)南50米",
	"lng": 118.18479759071796,
	"lat": 26.643875038064216
}, {
	"city": "宁德市",
	"title": "福鼎雨花斋素食馆",
	"address": "福建省宁德市福鼎市天湖路248-250号",
	"lng": 120.22379263660241,
	"lat": 27.31216381800606
}, {
	"city": "哈尔滨市",
	"title": "雨花斋",
	"address": "上京大道175号",
	"lng": 126.97664172167228,
	"lat": 45.55384916695279
}, {
	"city": "哈尔滨市",
	"title": "雨花斋",
	"address": "黑龙江省哈尔滨市五常市文化桥东路",
	"lng": 127.16898546987395,
	"lat": 44.92792363746468
}, {
	"city": "哈尔滨市",
	"title": "雨花斋",
	"address": "新发镇群力第六大道民生尚都小区瑞园2号楼二单元",
	"lng": 126.52804519745227,
	"lat": 45.726491804029955
}, {
	"city": "哈尔滨市",
	"title": "雨花斋免费互助素食餐厅",
	"address": "黑龙江省哈尔滨市南岗区三姓街2号附近",
	"lng": 126.66731111761494,
	"lat": 45.77106362229763
}, {
	"city": "哈尔滨市",
	"title": "雨花斋完美森林免费素食互助餐厅",
	"address": "黑龙江省哈尔滨市道里区安广街与抚顺街交叉口西南50米",
	"lng": 126.62610997607734,
	"lat": 45.76259189812118
}, {
	"city": "哈尔滨市",
	"title": "雨花斋(依兰店)",
	"address": "哈尔滨市依兰县通江路679号附近",
	"lng": 129.57023774433813,
	"lat": 46.32454660822045
}, {
	"city": "齐齐哈尔市",
	"title": "雨花斋免费素食互助餐厅",
	"address": "通江路17号附近",
	"lng": 124.90056372534387,
	"lat": 48.48879849968785
}, {
	"city": "齐齐哈尔市",
	"title": "雨花斋免费素食互助餐厅",
	"address": "黑龙江省齐齐哈尔市讷河市中心大街",
	"lng": 124.89097485300812,
	"lat": 48.4741526677695
}, {
	"city": "大庆市",
	"title": "万宝(团结雨花斋)",
	"address": "黑龙江省大庆市萨尔图区万峰路",
	"lng": 125.08482460070447,
	"lat": 46.575891601001366
}, {
	"city": "七台河市",
	"title": "雨花斋免费素食互助餐厅",
	"address": "桃山街道旭日街308号",
	"lng": 131.0180292788429,
	"lat": 45.779795160347
}, {
	"city": "双鸭山市",
	"title": "雨花斋",
	"address": "黑龙江省双鸭山市尖山区双福路139西南70米",
	"lng": 131.15010174814273,
	"lat": 46.66787560546634
}, {
	"city": "绥化市",
	"title": "雨花斋免费素食互助餐厅",
	"address": "黑龙江省绥化市庆安县庆安一中西南50米(解放北路西)",
	"lng": 127.51049399641995,
	"lat": 46.89070794505841
}, {
	"city": "武汉市",
	"title": "雨花斋",
	"address": "湖北省武汉市青山区随州街4附13号",
	"lng": 114.39478467716916,
	"lat": 30.63126002329797
}, {
	"city": "武汉市",
	"title": "雨花斋",
	"address": "湖北省武汉市东西湖区常青花园中路1/2常青中心商业街",
	"lng": 114.24729396158855,
	"lat": 30.64552684491846
}, {
	"city": "武汉市",
	"title": "雨花斋",
	"address": "湖北省武汉市江汉区江汉路21附近",
	"lng": 114.30191767388654,
	"lat": 30.582727487103842
}, {
	"city": "武汉市",
	"title": "雨花斋",
	"address": "湖北省武汉市硚口区汉正街88号附近",
	"lng": 114.2603626898088,
	"lat": 30.572600122988213
}, {
	"city": "武汉市",
	"title": "南湖雨花斋",
	"address": "长海路红旗长虹生鲜市场二楼",
	"lng": 114.31683197077705,
	"lat": 30.502752883451162
}, {
	"city": "黄冈市",
	"title": "雨花斋",
	"address": "黄冈市蕲春县",
	"lng": 115.46816427171709,
	"lat": 30.251400624349145
}, {
	"city": "黄冈市",
	"title": "妙舍雨花斋",
	"address": "窝陂塘路4号",
	"lng": 115.55840272798619,
	"lat": 29.851383753477982
}, {
	"city": "黄冈市",
	"title": "缘通雨花斋",
	"address": "湖北省黄冈市武穴市保康路66-2号附近",
	"lng": 115.57346264019489,
	"lat": 29.858033167504743
}, {
	"city": "黄石市",
	"title": "黄石雨花斋",
	"address": "黄石市黄石港区江北管理区老虎头路48号",
	"lng": 115.05883097456056,
	"lat": 30.240631085443578
}, {
	"city": "黄石市",
	"title": "感恩吃素雨花斋",
	"address": "罗家桥街道七里界路金贸大厦4楼",
	"lng": 114.98003610675285,
	"lat": 30.128383177590123
}, {
	"city": "十堰市",
	"title": "雨花斋",
	"address": "湖北省十堰市张湾区北京北路20号",
	"lng": 110.80567022903226,
	"lat": 32.669385682586466
}, {
	"city": "咸宁市",
	"title": "雨花斋",
	"address": "湖北省咸宁市崇阳县沿河大道99",
	"lng": 114.06593163385038,
	"lat": 29.544053407381906
}, {
	"city": "襄阳市",
	"title": "雨花斋",
	"address": "丹江路32号王家台社区居委会对面",
	"lng": 112.16113949270661,
	"lat": 32.059830308758784
}, {
	"city": "孝感市",
	"title": "雨花斋(胡家墩子店)",
	"address": "湖北省孝感市孝南区广场街道胡家墩子",
	"lng": 113.93517016638043,
	"lat": 30.928700337954865
}, {
	"city": "长春市",
	"title": "雨花斋",
	"address": "长春市绿园区",
	"lng": 125.2993749102774,
	"lat": 43.90286827840697
}, {
	"city": "长春市",
	"title": "雨花斋",
	"address": "吉林省长春市农安县古城街210号东南60米",
	"lng": 125.19625500722609,
	"lat": 44.43957523895405
}, {
	"city": "长春市",
	"title": "雨花斋",
	"address": "吉林省长春市绿园区万福街33号附近",
	"lng": 125.27377176595421,
	"lat": 43.89158837415602
}, {
	"city": "长春市",
	"title": "雨花斋免费素食餐厅",
	"address": "金叶小区南门西侧",
	"lng": 124.79021849129117,
	"lat": 43.49211298684275
}, {
	"city": "四平市",
	"title": "雨花斋",
	"address": "吉林省四平市伊通满族自治县水岸新城林业小区内",
	"lng": 125.32648604006017,
	"lat": 43.35861769293222
}, {
	"city": "四平市",
	"title": "雨花斋免费素食餐厅",
	"address": "金叶小区南门西侧",
	"lng": 124.79021849129117,
	"lat": 43.49211298684275
}, {
	"city": "四平市",
	"title": "雨花斋免费素食互助餐厅",
	"address": "吉林省四平市铁西区北天桥街186号北50米",
	"lng": 124.38215665575346,
	"lat": 43.180798394766
}, {
	"city": "通化市",
	"title": "雨花斋",
	"address": "爱民大街5号附近",
	"lng": 126.0752904267262,
	"lat": 42.69812196011391
}, {
	"city": "通化市",
	"title": "雨花斋",
	"address": "通化市集安市育才路与河东街交叉路口往东北约50米(山水花园)",
	"lng": 126.18288999969467,
	"lat": 41.13084491452399
}, {
	"city": "白山市",
	"title": "雨花斋感恩吃素",
	"address": "白山市抚松县参乡路102号附近",
	"lng": 127.28033097681902,
	"lat": 42.344930897024575
}, {
	"city": "白山市",
	"title": "雨花斋(鑫德西郡店)",
	"address": "白山市浑江区鑫德西郡c区",
	"lng": 126.40621315117218,
	"lat": 41.92941830314332
}, {
	"city": "松原市",
	"title": "雨花斋",
	"address": "吉林省松原市前郭尔罗斯蒙古族自治县鑫宇祥和苑东门对过",
	"lng": 124.85344499625927,
	"lat": 45.11441640958382
}, {
	"city": "沈阳市",
	"title": "雨花斋",
	"address": "沈阳市苏家屯区雪松路与牡丹街交叉路口往西南约50米(雪松新城-C区)",
	"lng": 123.35736074691552,
	"lat": 41.67282167427227
}, {
	"city": "沈阳市",
	"title": "雨花斋",
	"address": "沈阳市浑南区远航中路与文源街交叉路口东侧(嘉华新城-东区)",
	"lng": 123.49605911765612,
	"lat": 41.74038276937811
}, {
	"city": "沈阳市",
	"title": "雨花斋(站前东路店)",
	"address": "站前东路33号",
	"lng": 122.82564697826824,
	"lat": 42.00780565624376
}, {
	"city": "沈阳市",
	"title": "雨花斋(榆林店)",
	"address": "辽宁省沈阳市大东区榆林南街15号东80米",
	"lng": 123.50852068118218,
	"lat": 41.860249666447096
}, {
	"city": "大连市",
	"title": "雨花斋",
	"address": "大连市瓦房店市旺北路与旺角街交叉路口东北侧(旺角水果批发市场北侧约50米)",
	"lng": 121.97954469639164,
	"lat": 39.6318687091476
}, {
	"city": "大连市",
	"title": "雨花斋(中长街)",
	"address": "辽宁省大连市沙河口区泉涌街136",
	"lng": 121.58319838165396,
	"lat": 38.9181703871699
}, {
	"city": "大连市",
	"title": "雨花齐免费素食",
	"address": "辽宁省大连市沙河口区泉涌街134-11号附近",
	"lng": 121.58323431387436,
	"lat": 38.91807915252905
}, {
	"city": "朝阳市",
	"title": "雨花斋",
	"address": "朝阳市喀喇沁左翼蒙古族自治县",
	"lng": 119.76497781418057,
	"lat": 41.13328458802218
}, {
	"city": "朝阳市",
	"title": "雨花斋素食店",
	"address": "慕容街6-3号附近",
	"lng": 120.46879434226248,
	"lat": 41.58661383306884
}, {
	"city": "丹东市",
	"title": "丹东雨花斋",
	"address": "辽宁省丹东市元宝区金海路22-9号",
	"lng": 124.4093455787934,
	"lat": 40.14521509788097
}, {
	"city": "葫芦岛市",
	"title": "雨花斋免费素食饭庄(文兴路店)",
	"address": "辽宁省葫芦岛市连山区福满楼四部(王字楼店)东南70米",
	"lng": 120.85091697738572,
	"lat": 40.764139192156314
}, {
	"city": "营口市",
	"title": "雨花斋",
	"address": "辽宁省营口市盖州市长征大街82号附近",
	"lng": 122.36411332758799,
	"lat": 40.406125703809955
}, {
	"city": "常德市",
	"title": "雨花斋",
	"address": "常德市武陵区沙河街与沙港路交叉路口往东北约50米(柳荷鑫苑东南侧)",
	"lng": 111.70421925564634,
	"lat": 29.064019167919856
}, {
	"city": "常德市",
	"title": "雨花斋敬老扶幼中心",
	"address": "常德市津市市",
	"lng": 111.88441835275233,
	"lat": 29.619076756623098
}, {
	"city": "常德市",
	"title": "雨花斋敬老扶幼中心",
	"address": "湖南省常德市澧县洗墨池路68附近",
	"lng": 111.7594281241353,
	"lat": 29.642897029152834
}, {
	"city": "长沙市",
	"title": "雨花斋互助式免费素食餐厅",
	"address": "长沙市雨花区井湾路与曙光南路交叉口东50米",
	"lng": 113.02002114417645,
	"lat": 28.13305840904649
}, {
	"city": "长沙市",
	"title": "雨花斋公益互助餐厅(枫林路店)",
	"address": "湖南省长沙市岳麓区枫林二路322号附近",
	"lng": 112.92808766001016,
	"lat": 28.216321076144684
}, {
	"city": "长沙市",
	"title": "雨花斋(快乐义工麓山店)",
	"address": "长沙市岳麓区上游中路",
	"lng": 112.95385681118309,
	"lat": 28.20045905175885
}, {
	"city": "衡阳市",
	"title": "雨花斋",
	"address": "湖南省衡阳市常宁市泉峰西路446号(常宁市妇幼保健院西南90米)",
	"lng": 112.38950203405057,
	"lat": 26.40405501318662
}, {
	"city": "邵阳市",
	"title": "雨花齐(新邵健康路店)",
	"address": "湖南省邵阳市新邵县健康路62号附近",
	"lng": 111.47162900494362,
	"lat": 27.32552390426526
}, {
	"city": "益阳市",
	"title": "雨花斋",
	"address": "益阳市安化县沿江路与安化大桥交叉路口往西约50米(滨江星城西南侧约150米)",
	"lng": 111.23267542750197,
	"lat": 28.38419585022812
}, {
	"city": "永州市",
	"title": "雨花斋免费素食互助餐厅",
	"address": "湖南省永州市东安县湖塘路",
	"lng": 111.30555046197486,
	"lat": 26.392213810780607
}, {
	"city": "株洲市",
	"title": "雨花斋素食免费互助餐厅(株洲店)",
	"address": "湖南省株洲市芦淞区建设中路中广冶大厦19楼",
	"lng": 113.15476598249258,
	"lat": 27.848878968995486
}, {
	"city": "赤峰市",
	"title": "雨花斋",
	"address": "园林路22-5附近",
	"lng": 118.95995764836124,
	"lat": 42.26365627657987
}, {
	"city": "赤峰市",
	"title": "雨花斋",
	"address": "内蒙古自治区赤峰市宁城县花园街",
	"lng": 119.34229443951806,
	"lat": 41.59699631500011
}, {
	"city": "赤峰市",
	"title": "雨花斋",
	"address": "内蒙古自治区赤峰市宁城县富强路",
	"lng": 119.33544036847692,
	"lat": 41.59518230746895
}, {
	"city": "呼和浩特市",
	"title": "雨花斋(金桥店)",
	"address": "呼和浩特市赛罕区",
	"lng": 111.7493581333743,
	"lat": 40.766220381959506
}, {
	"city": "呼和浩特市",
	"title": "雨花斋免费互助素食餐厅",
	"address": "史家巷附近",
	"lng": 111.66267946691936,
	"lat": 40.79927025256005
}, {
	"city": "包头市",
	"title": "雨花斋",
	"address": "内蒙古自治区包头市青山区G110(京银线)",
	"lng": 109.98592827319321,
	"lat": 40.63653733044465
}, {
	"city": "鄂尔多斯市",
	"title": "东胜区雨花斋(万家惠F区店)",
	"address": "柴家梁万家惠F区",
	"lng": 110.05324055081962,
	"lat": 39.82252664434319
}, {
	"city": "呼伦贝尔市",
	"title": "雨花斋养生素食餐厅",
	"address": "内蒙古自治区呼伦贝尔市扎兰屯市布特哈北路",
	"lng": 122.75599226947357,
	"lat": 48.01045786136737
}, {
	"city": "乌兰察布市",
	"title": "雨花斋免费素食互助餐厅",
	"address": "乌兰察布市集宁区翡翠盛世(文化街北)",
	"lng": 113.13376397345827,
	"lat": 41.02832492917874
}, {
	"city": "长治市",
	"title": "雨花斋",
	"address": "松树街与紫金东街交叉口西南100米",
	"lng": 113.13577590830897,
	"lat": 36.20129232670215
}, {
	"city": "长治市",
	"title": "雨花斋",
	"address": "山西省长治市潞州区延安南路",
	"lng": 113.11738966062241,
	"lat": 36.17007174972962
}, {
	"city": "大同市",
	"title": "雨花斋",
	"address": "大同市平城区",
	"lng": 113.35717228429814,
	"lat": 40.078212685872415
}, {
	"city": "大同市",
	"title": "雨花斋(雍锦台店)",
	"address": "大同市平城区太和路与恒安街交叉路口西南侧(雍锦台)",
	"lng": 113.36913771369105,
	"lat": 40.079855093338374
}, {
	"city": "运城市",
	"title": "雨花斋",
	"address": "运城市新绛县府西路与复兴街交叉路口往北约50米(丽华苑)",
	"lng": 111.22516991913686,
	"lat": 35.64017283253779
}, {
	"city": "运城市",
	"title": "雨花斋免费素食互助餐厅",
	"address": "山西省运城市河津市馨苑路",
	"lng": 110.74237562279922,
	"lat": 35.604334129137236
}, {
	"city": "忻州市",
	"title": "雨花斋",
	"address": "山西省忻州市五台县台怀街",
	"lng": 113.60236396477167,
	"lat": 39.01104708491579
}, {
	"city": "天津市",
	"title": "雨花斋",
	"address": "天津市北辰区龙岩道商业街29号",
	"lng": 117.13090881644003,
	"lat": 39.217398166116936
}, {
	"city": "天津市",
	"title": "雨花斋",
	"address": "天津市滨海新区幸福路",
	"lng": 117.39296429642181,
	"lat": 38.674665995650784
}, {
	"city": "天津市",
	"title": "雨花斋",
	"address": "天津市静海区富康路",
	"lng": 116.9335273806324,
	"lat": 38.935128641813066
}, {
	"city": "天津市",
	"title": "雨花斋佛具店",
	"address": "宝芦公路北50米",
	"lng": 117.7768186849072,
	"lat": 39.41167530519959
}, {
	"city": "天津市",
	"title": "雨花斋(吉祥店)",
	"address": "天津市滨海新区",
	"lng": 117.4624015157321,
	"lat": 38.84250331396407
}, {
	"city": "天津市",
	"title": "雨花斋(启运里店)",
	"address": "杨柳青镇和河湾启运里七号楼底商3门",
	"lng": 117.03338877027682,
	"lat": 39.12363152794576
}, {
	"city": "天津市",
	"title": "雨花斋(万新街道店)",
	"address": "成林道万新综合市场二楼(七天酒店北侧三十米)",
	"lng": 117.28229233894811,
	"lat": 39.13368742002079
}, {
	"city": "上海市",
	"title": "雨花斋",
	"address": "上海市静安区江场西路1316",
	"lng": 121.43297304443988,
	"lat": 31.302107899814583
}, {
	"city": "上海市",
	"title": "江桥雨花斋素食餐厅",
	"address": "嘉定区曹安公路1978号",
	"lng": 121.36382301340115,
	"lat": 31.26175786125095
}, {
	"city": "上海市",
	"title": "雨花斋",
	"address": "上海市杨浦区军工路2855号2楼东南80米",
	"lng": 121.54960373185291,
	"lat": 31.340269858699333
}, {
	"city": "上海市",
	"title": "雨花斋(合生财富海景公馆东)",
	"address": "上海市金山区山阳镇杭州湾大道490号",
	"lng": 121.36108875108987,
	"lat": 30.732876473778806
}, {
	"city": "上海市",
	"title": "雨花斋免费素食互助餐厅(安礼路店)",
	"address": "上海市嘉定区安礼路与安诚路交叉口西南150米",
	"lng": 121.17684988421543,
	"lat": 31.275519963883404
}, {
	"city": "乐山市",
	"title": "雨花斋",
	"address": "乐山市峨眉山市景秀路与红光路交叉路口东南侧(景秀家园)",
	"lng": 103.50365913407124,
	"lat": 29.612773439412187
}, {
	"city": "乐山市",
	"title": "雨花斋素食互动餐厅",
	"address": "四川省乐山市市中区南新大道",
	"lng": 103.74048983593241,
	"lat": 29.53858192198734
}, {
	"city": "成都市",
	"title": "雨花斋(幸福公社)",
	"address": "洞口街6-14号",
	"lng": 103.5445474070782,
	"lat": 30.67998788036232
}, {
	"city": "眉山市",
	"title": "雨花齋公益素食互助餐厅",
	"address": "四川省眉山市彭山区前程路",
	"lng": 103.87853101771887,
	"lat": 30.22440085776929
}, {
	"city": "内江市",
	"title": "雨花斋互助免费素食",
	"address": "内江市市中区双洞路与环城路交叉路口西侧(新上城东北侧)",
	"lng": 105.05877949174103,
	"lat": 29.583633360740755
}, {
	"city": "桂林市",
	"title": "雨花斋",
	"address": "六和路302号金水源大洒店二楼",
	"lng": 110.32627214280375,
	"lat": 25.28448564563922
}, {
	"city": "桂林市",
	"title": "全州雨花斋免费素食互助餐厅",
	"address": "广西壮族自治区桂林市全州县全州镇桂黄北路117号",
	"lng": 111.08181453918942,
	"lat": 25.944601207551447
}, {
	"city": "北海市",
	"title": "雨花斋",
	"address": "北海市海城区垌尾路与长青北路交叉路口往南约100米(长青市场西北侧约50米)",
	"lng": 109.12475546596237,
	"lat": 21.479483872001477
}, {
	"city": "柳州市",
	"title": "雨花斋免费素食互助餐厅(柳州银桐店)",
	"address": "广西壮族自治区柳州市鱼峰区银桐路",
	"lng": 109.43617624717551,
	"lat": 24.30427108071225
}, {
	"city": "驻马店市",
	"title": "雨花斋",
	"address": "驻马店市新蔡县",
	"lng": 114.98402152897842,
	"lat": 32.75534310789266
}, {
	"city": "驻马店市",
	"title": "雨花斋免费素食互助餐厅",
	"address": "天中山大道与天颐路交叉口北150米",
	"lng": 114.01832711591405,
	"lat": 32.973564368379634
}, {
	"city": "焦作市",
	"title": "雨花斋(沁阳总店)",
	"address": "东环南路东50米",
	"lng": 112.96933786342026,
	"lat": 35.09179036981794
}, {
	"city": "郑州市",
	"title": "雨花斋",
	"address": "郑州市登封市颍河路与阳城路交叉路口往南约100米(立英小区)",
	"lng": 113.06226918537739,
	"lat": 34.45064044796957
}, {
	"city": "汉中市",
	"title": "雨花斋",
	"address": "陕西省汉中市略阳县金亚路",
	"lng": 106.15719972349424,
	"lat": 33.33728645456435
}, {
	"city": "汉中市",
	"title": "雨花斋",
	"address": "东关街道南一环路聚兴名苑丁家营新村旁",
	"lng": 107.05911498433349,
	"lat": 33.069301151082506
}, {
	"city": "宝鸡市",
	"title": "雨花斋",
	"address": "陕西省宝鸡市金台区宏文路",
	"lng": 107.22867158663065,
	"lat": 34.369704734923154
}, {
	"city": "咸阳市",
	"title": "雨花斋",
	"address": "北大街与北环路交叉口东南150米",
	"lng": 108.49636679011121,
	"lat": 34.31046571686324
}, {
	"city": "北京市",
	"title": "雨花斋",
	"address": "北京市房山区",
	"lng": 116.1415019226593,
	"lat": 39.73065103148776
}, {
	"city": "北京市",
	"title": "雨花斋香堂感恩店",
	"address": "北京市昌平区香堂环路香堂村公园斜对面",
	"lng": 116.37374497835926,
	"lat": 40.24677206142262
}, {
	"city": "北京市",
	"title": "港馨雨花斋",
	"address": "北京市顺义区Ｙ００５与平沿路交叉路口往北约100米(顺义区汽车职业学校东侧约50米)",
	"lng": 116.7020849846335,
	"lat": 40.1090020774756
}, {
	"city": "贵阳市",
	"title": "雨花斋",
	"address": "红岩东郡小区4栋1楼",
	"lng": 106.75396741736346,
	"lat": 26.586611557331505
}, {
	"city": "贵阳市",
	"title": "雨花斋免费素食餐厅",
	"address": "金狮社区服务中心金狮小区三期顺海苑",
	"lng": 106.7432362597448,
	"lat": 26.60467277369702
}, {
	"city": "贵阳市",
	"title": "中铁国际雨花斋北极熊水站",
	"address": "太慈社区服务中心太慈社区服务中心青山小区n组团1栋",
	"lng": 106.69467781643567,
	"lat": 26.560851379756876
}, {
	"city": "昆明市",
	"title": "幸福家园雨花斋",
	"address": "云南省昆明市五华区沣源路辅路",
	"lng": 102.7527648398843,
	"lat": 25.125923919479376
}, {
	"city": "西双版纳傣族自治州",
	"title": "景洪敬善素食餐厅雨花斋",
	"address": "云南省西双版纳傣族自治州景洪市天城商贸旅游步行街允南一路138号",
	"lng": 100.80440100466875,
	"lat": 22.019744003200067
}, {
	"city": "兰州市",
	"title": "雨花斋免费素食互助餐厅(五泉山店)",
	"address": "甘肃省兰州市城关区五泉南路91号东北90米",
	"lng": 103.83442421717895,
	"lat": 36.04559216316145
}, {
	"city": "银川市",
	"title": "雨花齐(绿园巷)",
	"address": "银川市金凤区鹿鸣苑8-2",
	"lng": 106.2568084197987,
	"lat": 38.47523797799732
}, {
	"city": "重庆市",
	"title": "雨花斋",
	"address": "重庆市江北区金源路62附41号",
	"lng": 106.5360959922674,
	"lat": 29.562968736425095
}]
