[{
	"uuid": "88F48BD-823C-42F1-857A-124E495B351B",
	"taskType": "EcologicalFarm",
	"title": "松果家园",
	"city": "恩施",
	"address": "湖北恩施宣恩县",
	"lng":109.70856547433189,
	"lat":29.775887951829443,
	"lightWish":"惬意的田园生活",
	"QRcode":"./iTopojs/QRcode/88F48BD-823C-42F1-857A-124E495B351B.jpg"
}, {
	"uuid": "5DFB04FA-1091-4169-AB9D-FF2673CC4476",
	"taskType": "EcologicalFarm",
	"title": "长白山生态有机谷",
	"city": "延边朝鲜族自治州",
	"address": "地处长白山腹地，松花江的上游（源头）",
	"lng": 128.18313403299376,
	"lat": 42.19239088931219,
	"lightWish":"新种子计划，保存能够发芽的种子，一起劳动，一起创造.地处长白山腹地，松花江的上游（源头），现有22公里峡谷（依山傍水），可用土地一千五百余亩；计划打造长白山生态有机”项目需要志同道合有缘之人聚合共同创造",
	"QRcode":"./iTopojs/QRcode/5DFB04FA-1091-4169-AB9D-FF2673CC4476.jpg"
}, {
	"uuid": "E7411AF8-DD5B-4863-895A-C1DF80098B7C",
	"taskType": "EcologicalFarm",
	"title": "成都都江堰观音山:酵素",
	"city": "成都",
	"address": "成都都江堰观音山",
	"lng": 103.62451,
	"lat": 30.99836,
	"lightWish":"楊枝甘露",
	"QRcode":"./iTopojs/QRcode/E7411AF8-DD5B-4863-895A-C1DF80098B7C.jpg"
},{
	"uuid": "D44F75B6-DBCD-4328-A0EB-B40E1E89EAA9",
	"taskType": "Canteen",
	"title": "雨花斋",
	"city": "汉中市",
	"address": "东关街道南一环路聚兴名苑丁家营新村旁",
	"lng": 107.05911498433349,
	"lat": 33.069301151082506,
	"lightWish":"楊枝甘露",
	"QRcode":""
},{
	"uuid": "FEDC6F8F-F40E-4F72-8D7A-23BAFD67DD36",
	"taskType": "Canteen",
	"title": "雨花斋互助式免费素食餐厅",
	"city": "长沙市",
	"address": "长沙市雨花区井湾路与曙光南路交叉口东50米",
	"lng": 113.02002114417645,
	"lat": 28.13305840904649,
	"lightWish":"楊枝甘露",
	"QRcode":""
}
]
